{ "centers":[117.062606,36.645421],
  "type": "FeatureCollection",
  "features": [
    {
      "type": "Feature",
      "properties": {
        "message":{
          "startTime":"2019-11-06 07:15:15",
          "endTime":"2019-11-06 09:45:05",
          "address":"济南市窑头路东段3号"
        },
        "description":"居住地：2h",
        "icon":"居住地.png",
        "iconSize": [40, 40]
      },
      "geometry": {
        "type": "Point",
        "coordinates": [
         117.084377,
	36.655054
        ]
      }
    },
    {
      "type": "Feature",
      "properties": {
        "message":{
          "startTime":"2019-11-06 11:55:10",
          "endTime":"2019-11-06 14:35:05",
          "address":"济南市环山路108号"
        },
        "description":"敏感地：3h",
        "icon":"敏感地.png",
        "iconSize": [40, 40]
      },
      "geometry": {
        "type": "Point",
        "coordinates": [
         117.053655,
	36.642421
        ]
      }
    },
    {
      "type": "Feature",
      "properties": {
        "message":{
          "startTime":"2019-11-06 15:20:10",
          "endTime":"2019-11-06 22:22:05",
          "address":"济南市历下区山大路201号"
        },
        "description":"工作地：8h",
        "icon":"workPlace.png",
        "iconSize": [40, 40]
      },
      "geometry": {
        "type": "Point",
        "coordinates": [
          117.05548,
	36.657221
        ]
      }
    },
    {
      "type": "Feature",
      "properties": {
        "message":{
          "startTime":"2019-11-06 23:15:10",
          "endTime":"2019-11-06 23:35:05",
          "address":"山东省济南市历下区环山路137号"
        },
        "description":"消失：0.5h",
        "icon":"消失.png",
        "iconSize": [40, 40]
      },
      "geometry": {
        "type": "Point",
        "coordinates": [
          117.058606,
	36.637763
        ]
      }
    },
    {
      "type": "Feature",
      "properties": {
        "message":{
          "startTime":"2019-11-06 15:22:10",
          "endTime":"2019-11-06 16:33:05",
          "address":"山东省济南市历下区旅游路"
        },
        "description":"停留地：1h",
        "icon":"停留地.png",
        "iconSize": [40, 40]
      },
      "geometry": {
        "type": "Point",
        "coordinates": [
          117.087076,
	36.640074
        ]
      }
    }
  ]
}
